{
  "views": [
    {
      "contentId": 1766557302778,
      "contentType": "movie",
      "title": "Five Nights at Freddy's 2",
      "genre": "Action",
      "userId": 1,
      "watchTime": 0,
      "progress": 0,
      "ip": "::1",
      "country": "Local",
      "countryCode": "XX",
      "region": "Local",
      "city": "Local",
      "timezone": "UTC",
      "lat": 0,
      "lon": 0,
      "timestamp": "2025-12-24T06:21:50.283Z"
    },
    {
      "contentId": 1766557302778,
      "contentType": "movie",
      "title": "Five Nights at Freddy's 2",
      "genre": "Action",
      "userId": 1,
      "watchTime": 0,
      "progress": 0,
      "ip": "::1",
      "country": "Local",
      "countryCode": "XX",
      "region": "Local",
      "city": "Local",
      "timezone": "UTC",
      "lat": 0,
      "lon": 0,
      "timestamp": "2025-12-24T06:22:14.607Z"
    },
    {
      "contentId": 1766557302778,
      "contentType": "movie",
      "title": "Five Nights at Freddy's 2",
      "genre": "Action",
      "userId": 1,
      "watchTime": 0,
      "progress": 0,
      "ip": "::1",
      "country": "Local",
      "countryCode": "XX",
      "region": "Local",
      "city": "Local",
      "timezone": "UTC",
      "lat": 0,
      "lon": 0,
      "timestamp": "2025-12-24T06:22:17.911Z"
    },
    {
      "contentId": 1766472474220,
      "contentType": "movie",
      "title": "Insaisissables 3",
      "genre": "Action",
      "userId": 1,
      "watchTime": 0,
      "progress": 0,
      "ip": "::1",
      "country": "Local",
      "countryCode": "XX",
      "region": "Local",
      "city": "Local",
      "timezone": "UTC",
      "lat": 0,
      "lon": 0,
      "timestamp": "2025-12-24T06:23:16.617Z"
    },
    {
      "contentId": 1766472474220,
      "contentType": "movie",
      "title": "Insaisissables 3",
      "genre": "Action",
      "userId": 1,
      "watchTime": 0,
      "progress": 0,
      "ip": "::1",
      "country": "Local",
      "countryCode": "XX",
      "region": "Local",
      "city": "Local",
      "timezone": "UTC",
      "lat": 0,
      "lon": 0,
      "timestamp": "2025-12-24T06:24:33.660Z"
    },
    {
      "contentId": 1766557302778,
      "contentType": "movie",
      "title": "Five Nights at Freddy's 2",
      "genre": "Action",
      "userId": 1,
      "watchTime": 0,
      "progress": 0,
      "ip": "::1",
      "country": "Local",
      "countryCode": "XX",
      "region": "Local",
      "city": "Local",
      "timezone": "UTC",
      "lat": 0,
      "lon": 0,
      "timestamp": "2025-12-24T06:24:42.077Z"
    },
    {
      "contentId": 1766557302778,
      "contentType": "movie",
      "title": "Five Nights at Freddy's 2",
      "genre": "Action",
      "userId": 1,
      "watchTime": 0,
      "progress": 0,
      "ip": "::1",
      "country": "Local",
      "countryCode": "XX",
      "region": "Local",
      "city": "Local",
      "timezone": "UTC",
      "lat": 0,
      "lon": 0,
      "timestamp": "2025-12-24T06:24:46.870Z"
    },
    {
      "contentId": 1766557302778,
      "contentType": "movie",
      "title": "Five Nights at Freddy's 2",
      "genre": "Action",
      "userId": 1,
      "watchTime": 0,
      "progress": 0,
      "ip": "::1",
      "country": "Local",
      "countryCode": "XX",
      "region": "Local",
      "city": "Local",
      "timezone": "UTC",
      "lat": 0,
      "lon": 0,
      "timestamp": "2025-12-24T06:24:49.929Z"
    },
    {
      "contentId": 1766557302778,
      "contentType": "movie",
      "title": "Five Nights at Freddy's 2",
      "genre": "Action",
      "watchTime": 0,
      "progress": 0,
      "ip": "::1",
      "country": "Local",
      "countryCode": "XX",
      "region": "Local",
      "city": "Local",
      "timezone": "UTC",
      "lat": 0,
      "lon": 0,
      "timestamp": "2025-12-24T06:24:53.583Z"
    },
    {
      "contentId": 1766472474220,
      "contentType": "movie",
      "title": "Insaisissables 3",
      "genre": "Action",
      "watchTime": 0,
      "progress": 0,
      "ip": "::1",
      "country": "Local",
      "countryCode": "XX",
      "region": "Local",
      "city": "Local",
      "timezone": "UTC",
      "lat": 0,
      "lon": 0,
      "timestamp": "2025-12-24T06:24:57.125Z"
    },
    {
      "contentId": 1766557302778,
      "contentType": "movie",
      "title": "Five Nights at Freddy's 2",
      "genre": "Action",
      "watchTime": 0,
      "progress": 0,
      "ip": "::1",
      "country": "Local",
      "countryCode": "XX",
      "region": "Local",
      "city": "Local",
      "timezone": "UTC",
      "lat": 0,
      "lon": 0,
      "timestamp": "2025-12-24T06:25:00.821Z"
    },
    {
      "contentId": 1766557302778,
      "contentType": "movie",
      "title": "Five Nights at Freddy's 2",
      "genre": "Action",
      "userId": 1,
      "watchTime": 0,
      "progress": 0,
      "ip": "::1",
      "country": "Local",
      "countryCode": "XX",
      "region": "Local",
      "city": "Local",
      "timezone": "UTC",
      "lat": 0,
      "lon": 0,
      "timestamp": "2025-12-24T06:25:14.007Z"
    },
    {
      "contentId": 1766558157624,
      "contentType": "movie",
      "title": "Running Man",
      "genre": "Action",
      "userId": 1,
      "watchTime": 0,
      "progress": 0,
      "ip": "::1",
      "country": "Local",
      "countryCode": "XX",
      "region": "Local",
      "city": "Local",
      "timezone": "UTC",
      "lat": 0,
      "lon": 0,
      "timestamp": "2025-12-24T06:36:33.433Z"
    },
    {
      "contentId": 1766558157083,
      "contentType": "movie",
      "title": "Insaisissables 3",
      "genre": "Action",
      "userId": 1,
      "watchTime": 0,
      "progress": 0,
      "ip": "::1",
      "country": "Local",
      "countryCode": "XX",
      "region": "Local",
      "city": "Local",
      "timezone": "UTC",
      "lat": 0,
      "lon": 0,
      "timestamp": "2025-12-24T06:36:41.160Z"
    },
    {
      "contentId": 1766558157083,
      "contentType": "movie",
      "title": "Insaisissables 3",
      "genre": "Action",
      "userId": 1,
      "watchTime": 0,
      "progress": 0,
      "ip": "::1",
      "country": "Local",
      "countryCode": "XX",
      "region": "Local",
      "city": "Local",
      "timezone": "UTC",
      "lat": 0,
      "lon": 0,
      "timestamp": "2025-12-24T06:37:24.781Z"
    },
    {
      "contentId": 1766558157083,
      "contentType": "movie",
      "title": "Insaisissables 3",
      "genre": "Action",
      "userId": 1,
      "watchTime": 0,
      "progress": 0,
      "ip": "::1",
      "country": "Local",
      "countryCode": "XX",
      "region": "Local",
      "city": "Local",
      "timezone": "UTC",
      "lat": 0,
      "lon": 0,
      "timestamp": "2025-12-24T06:37:35.509Z"
    },
    {
      "contentId": 1766558156534,
      "contentType": "movie",
      "title": "Five Nights at Freddy's 2",
      "genre": "Action",
      "userId": 1,
      "watchTime": 0,
      "progress": 0,
      "ip": "::1",
      "country": "Local",
      "countryCode": "XX",
      "region": "Local",
      "city": "Local",
      "timezone": "UTC",
      "lat": 0,
      "lon": 0,
      "timestamp": "2025-12-24T06:37:38.360Z"
    },
    {
      "contentId": 1766558156534,
      "contentType": "movie",
      "title": "Five Nights at Freddy's 2",
      "genre": "Action",
      "userId": 1,
      "watchTime": 24,
      "progress": 0.5,
      "ip": "::1",
      "country": "Local",
      "countryCode": "XX",
      "region": "Local",
      "city": "Local",
      "timezone": "UTC",
      "lat": 0,
      "lon": 0,
      "timestamp": "2025-12-24T06:38:02.511Z"
    },
    {
      "contentId": 1766558156534,
      "contentType": "movie",
      "title": "Five Nights at Freddy's 2",
      "genre": "Action",
      "userId": 1,
      "watchTime": 0,
      "progress": 0,
      "ip": "::1",
      "country": "Local",
      "countryCode": "XX",
      "region": "Local",
      "city": "Local",
      "timezone": "UTC",
      "lat": 0,
      "lon": 0,
      "timestamp": "2025-12-24T06:38:02.523Z"
    },
    {
      "contentId": 1766558156534,
      "contentType": "movie",
      "title": "Five Nights at Freddy's 2",
      "genre": "Action",
      "userId": 1,
      "watchTime": 0,
      "progress": 0,
      "ip": "::1",
      "country": "Local",
      "countryCode": "XX",
      "region": "Local",
      "city": "Local",
      "timezone": "UTC",
      "lat": 0,
      "lon": 0,
      "timestamp": "2025-12-24T06:38:17.365Z"
    },
    {
      "contentId": 1766558156534,
      "contentType": "movie",
      "title": "Five Nights at Freddy's 2",
      "genre": "Action",
      "userId": 1,
      "watchTime": 0,
      "progress": 0,
      "ip": "::1",
      "country": "Local",
      "countryCode": "XX",
      "region": "Local",
      "city": "Local",
      "timezone": "UTC",
      "lat": 0,
      "lon": 0,
      "timestamp": "2025-12-24T06:38:38.697Z"
    },
    {
      "contentId": 1766558156534,
      "contentType": "movie",
      "title": "Five Nights at Freddy's 2",
      "genre": "Action",
      "userId": 1,
      "watchTime": 0,
      "progress": 0,
      "ip": "::1",
      "country": "Local",
      "countryCode": "XX",
      "region": "Local",
      "city": "Local",
      "timezone": "UTC",
      "lat": 0,
      "lon": 0,
      "timestamp": "2025-12-24T06:39:11.118Z"
    },
    {
      "contentId": 1766558156534,
      "contentType": "movie",
      "title": "Five Nights at Freddy's 2",
      "genre": "Action",
      "userId": 1,
      "watchTime": 0,
      "progress": 0,
      "ip": "::1",
      "country": "Local",
      "countryCode": "XX",
      "region": "Local",
      "city": "Local",
      "timezone": "UTC",
      "lat": 0,
      "lon": 0,
      "timestamp": "2025-12-24T06:39:12.468Z"
    },
    {
      "contentId": 1766558156534,
      "contentType": "movie",
      "title": "Five Nights at Freddy's 2",
      "genre": "Action",
      "watchTime": 0,
      "progress": 0,
      "ip": "::1",
      "country": "Local",
      "countryCode": "XX",
      "region": "Local",
      "city": "Local",
      "timezone": "UTC",
      "lat": 0,
      "lon": 0,
      "timestamp": "2025-12-24T06:39:16.681Z"
    },
    {
      "contentId": 1766558156534,
      "contentType": "movie",
      "title": "Five Nights at Freddy's 2",
      "genre": "Action",
      "userId": 1,
      "watchTime": 0,
      "progress": 0,
      "ip": "::1",
      "country": "Local",
      "countryCode": "XX",
      "region": "Local",
      "city": "Local",
      "timezone": "UTC",
      "lat": 0,
      "lon": 0,
      "timestamp": "2025-12-24T06:40:26.575Z"
    },
    {
      "contentId": 1766558156534,
      "contentType": "movie",
      "title": "Five Nights at Freddy's 2",
      "genre": "Action",
      "userId": 1,
      "watchTime": 9,
      "progress": 0.5,
      "ip": "::1",
      "country": "Local",
      "countryCode": "XX",
      "region": "Local",
      "city": "Local",
      "timezone": "UTC",
      "lat": 0,
      "lon": 0,
      "timestamp": "2025-12-24T06:40:36.157Z"
    },
    {
      "contentId": 1766558156534,
      "contentType": "movie",
      "title": "Five Nights at Freddy's 2",
      "genre": "Action",
      "userId": 1,
      "watchTime": 0,
      "progress": 0,
      "ip": "::1",
      "country": "Local",
      "countryCode": "XX",
      "region": "Local",
      "city": "Local",
      "timezone": "UTC",
      "lat": 0,
      "lon": 0,
      "timestamp": "2025-12-24T06:40:36.173Z"
    },
    {
      "contentId": 1766558156534,
      "contentType": "movie",
      "title": "Five Nights at Freddy's 2",
      "genre": "Action",
      "userId": 1,
      "watchTime": 0,
      "progress": 0,
      "ip": "::1",
      "country": "Local",
      "countryCode": "XX",
      "region": "Local",
      "city": "Local",
      "timezone": "UTC",
      "lat": 0,
      "lon": 0,
      "timestamp": "2025-12-24T06:41:52.066Z"
    },
    {
      "contentId": 1766558156534,
      "contentType": "movie",
      "title": "Five Nights at Freddy's 2",
      "genre": "Action",
      "userId": 1,
      "watchTime": 0,
      "progress": 0,
      "ip": "::1",
      "country": "Local",
      "countryCode": "XX",
      "region": "Local",
      "city": "Local",
      "timezone": "UTC",
      "lat": 0,
      "lon": 0,
      "timestamp": "2025-12-24T06:42:19.859Z"
    },
    {
      "contentId": 1766558163434,
      "contentType": "movie",
      "title": "Y a-t-il un flic pour sauver le monde ?",
      "genre": "Action",
      "userId": 1,
      "watchTime": 0,
      "progress": 0,
      "ip": "::1",
      "country": "Local",
      "countryCode": "XX",
      "region": "Local",
      "city": "Local",
      "timezone": "UTC",
      "lat": 0,
      "lon": 0,
      "timestamp": "2025-12-24T06:42:28.141Z"
    },
    {
      "contentId": 1766558165632,
      "contentType": "movie",
      "title": "Mission : Impossible - The Final Reckoning",
      "genre": "Action",
      "userId": 1,
      "watchTime": 0,
      "progress": 0,
      "ip": "::1",
      "country": "Local",
      "countryCode": "XX",
      "region": "Local",
      "city": "Local",
      "timezone": "UTC",
      "lat": 0,
      "lon": 0,
      "timestamp": "2025-12-24T06:47:59.788Z"
    },
    {
      "contentId": 1766561699043,
      "contentType": "movie",
      "title": "Ballerina",
      "genre": "Action",
      "userId": 1,
      "watchTime": 0,
      "progress": 0,
      "ip": "::1",
      "country": "Local",
      "countryCode": "XX",
      "region": "Local",
      "city": "Local",
      "timezone": "UTC",
      "lat": 0,
      "lon": 0,
      "timestamp": "2025-12-24T15:57:53.421Z"
    }
  ],
  "adImpressions": [],
  "adClicks": [],
  "sessions": [
    {
      "sessionId": "session_1766591873121_k7t2hchdr",
      "userId": 1,
      "contentId": 1766561699043,
      "contentType": "movie",
      "ip": "::1",
      "country": "Local",
      "countryCode": "XX",
      "region": "Local",
      "city": "Local",
      "timezone": "UTC",
      "lat": 0,
      "lon": 0,
      "startTime": "2025-12-24T15:57:53.435Z",
      "lastActivity": "2025-12-24T15:57:53.435Z"
    }
  ],
  "bandwidth": []
}